,places,longitude,latitude
0,Å,8.7401612,60.6598862
1,Ådalsbruk,11.3057568,60.7894133
2,Adamstuen,10.7332199,59.9334481
3,Åfjord,10.219907721089251,64.0835634
4,Agdenes,9.5152591,63.5832472
5,Agder,8.034963534558171,58.71944225
6,Ågotnes,5.0024982,60.4042983
7,Aker brygge,10.7250417,59.9099278
8,Akershus,11.320172312435517,60.03851925
9,Åkrehamn,5.1859501,59.2608001
10,Åkrene,11.117785,59.939341
11,Aksdal,5.445157,59.4230834
12,Ål,8.503740458963836,60.69726555
13,Ålesund,6.168828066313526,62.76712545
14,Ålgård,5.8472399,58.7692076
15,Algarheim,11.2522803,60.1443687
16,Alna,10.8352756,59.9324168
17,Alshus,10.9464583,59.1720472
18,Alstahaug,12.431780401598033,65.86742229999999
19,Alsvåg,15.2800197,68.9018016
20,Alta,23.2733282,69.9666046
21,Alternes,14.0218778,66.3083291
22,Alvdal,10.50249213455308,62.0965119
23,Ålvik,6.4324249,60.4312911
24,Åmli,8.324120099496348,58.7996897
25,Åmot,11.605205608876366,61.261177950000004
26,Amtmannsnes,23.2942694,69.9889242
27,Åndalsnes,7.6867621,62.5681692
28,Andebu,10.1757848,59.305764
29,Andenes,16.13968094661204,69.29132535
30,Andøy,15.7739747867247,69.2398567
31,Andøya,15.759284684216212,69.0995473
32,Andselv,18.5306953,69.073508
33,Andslimoen,18.5792958,69.0903474
34,Åneby,10.8627588,60.0854639
35,Årås,4.9329999,60.7770731
36,Årdal,7.804961075198172,61.28605655
37,Årdalstangen,7.7025037,61.236136
38,Aremark,11.687334481145378,59.185925299999994
39,Arendal,8.94694911492874,58.42673005
40,Arna,5.4666318,60.4202652
41,Årnes,11.4648744,60.1236367
42,Årnset,9.9604948,63.5901863
43,Åros,10.5110776,59.7059647
44,Årøysund,10.4574576,59.1831961
45,Årset,6.3854906,62.5002643
46,Årstad,5.355389809735507,60.36098545
47,Ås,10.856464,59.924854
48,Åsane,5.338944600558691,60.4724133
49,Åse,15.8094355,69.0160614
50,Åsen,18.8455474,69.5251089
51,Åsgårdstrand,10.4680198,59.3491387
52,Åsgrenda,10.9910233,60.1709688
53,Asker,10.47483598845985,59.68126025
54,Askgrenda,10.2025722,59.8122306
55,Askim,11.1641908,59.5832224
56,Askje,5.6871202,59.0677305
57,Askjem,9.9994459,63.509892
58,Askøy,5.094819869068348,60.5023024
59,Askvoll,4.679680639813811,61.35374245
60,Åsnes,12.186882677125336,60.68122735
61,Audnedal,7.3351151,58.222171
62,Aukra,6.678643917674241,62.939316000000005
63,Aulifeltet,11.3527389,60.0346761
64,Aurdal,9.4149741,60.9244603
65,Aure,8.511189131365033,63.28020495
66,Aurland,7.20953263531658,60.87089325
67,Aurlandsvangen,7.1869771,60.9057573
68,Aurskog-Høland,11.595625634838704,59.8086308
69,Aursmoen,11.4427327,59.9276247
70,Aust-Agder,7.371130883739518,59.567840149999995
71,Austevoll,4.943296323343294,60.060384299999996
72,Austlandet,4.8653445,60.5723461
73,Austmarka,12.3212407,60.1003757
74,Austnes,6.2735164,62.6374298
75,Austreim,8.6736414,61.1709867
76,Austrheim,4.872126364450646,60.7939165
77,Ausvika,14.491824027165176,67.33447185
78,Avaldsnes,5.2785707,59.3549362
79,Averøy,7.4323066310460995,63.1371204
80,Bærum,10.499710818578329,59.9289639
81,Bagn,9.5523106,60.8225956
82,Balestrand,6.5360834,61.2096194
83,Ballangen,16.8313381,68.342872
84,Ballstad,13.5450454,68.0742983
85,Balsfjord,19.169931437165275,69.2799737
86,Bamble,9.544313492899201,59.018085400000004
87,Bangsund,11.3959793,64.3923404
88,Barcode,10.7595581,59.9080901
89,Bardu,18.68039524040413,68.7027714
90,Barkåker,10.3899148,59.3186085
91,Batnfjordsøra,7.679776,62.8933784
92,Båtsfjord,30.327265303498322,70.61427605
93,Beisfjord,17.5962873,68.3761714
94,Beitostølen,8.9062594,61.2487161
95,Bekkelaget,10.7757743,59.8814224
96,Bekkjarvik,5.2043518,60.0071016
97,Berg,10.7453664,59.9512469
98,Bergen,5.3259192,60.3943055
99,Bergenhus,5.29439308725682,60.407048950000004
100,Berger,10.3807984,59.5448629
101,Bergsåsen,10.2497694,59.3636194
102,Bergsmo,12.2185755,64.4673641
103,Bergstad,18.7028083,69.5400944
104,Berkåk,10.0095189,62.8280291
105,Berlevåg,29.150528646532546,70.79904505
106,Bindal,12.435752138472857,65.22111015
107,Biri,10.6094855,60.9565725
108,Birkeland,8.2320026,58.330797
109,Birkenes,8.237799937674701,58.4394635
110,Bismo,8.2664114,61.8843655
111,Bjerka,13.8362759,66.149043
112,Bjerke,10.829208453029786,59.941394700000004
113,Bjerkreim,6.158869699212522,58.65455625
114,Bjerkvik,17.5571481,68.5491657
115,Bjervamoen,9.1063141,59.2983943
116,Bjølstad,9.2871547,61.7616857
117,Bjørgum,6.5406324,60.614404
118,Bjørkelangen,11.544373461315965,59.85166475
119,Bjørnevatn,29.9872241,69.6673657
120,Bjørvika,10.7545531,59.9083819
121,Bjugn,9.808629,63.7649663
122,Blæstadgrenda,11.178475,60.816003
123,Blaker,11.3012644,60.0048346
124,Blakstad,10.4646853,59.8191548
125,Bleik,15.9560051,69.2719541
126,Blindern,10.716072,59.9401338
127,Bø,14.282668557940369,68.7408364
128,Bodø,13.915441997137794,67.3094783
129,Bogen,11.4684157,64.0190836
130,Bokn,5.475702645238316,59.19252415
131,Bømlo,5.048475346723132,59.703684100000004
132,Borgen,10.695638,59.9346211
133,Borkenes,16.1715549,68.7726305
134,Børsa,10.0662385,63.3247682
135,Botngård,9.810943,63.7696011
136,Botten,9.5615952,58.9701334
138,Bøverbru,10.6771824,60.6662105
139,Brandal,6.0086323,62.4004193
140,Brandbu,10.5070018,60.4207532
141,Brandsøy,5.1359345,61.6026712
142,Brårud,11.3390247,60.2085553
143,Braskereidfoss,11.8003898,60.7242592
144,Bratsberg,10.4824396,63.349303
146,Breivikbotn,22.2871516,70.5886731
147,Brekkeåsen,9.881339,59.708475
148,Brekstad,9.6664996,63.6868716
149,Bremanger,5.057135182629548,61.848102850000004
150,Bremsnes,7.6615851,63.0845779
151,Brennåsen,9.417825,59.675806
152,Brevik,9.699978,59.0528886
153,Brønnøy,11.82116993881591,65.41363515
154,Brønnøysund,12.2116394,65.4748755
155,Brønnsletten,27.3527374,70.9443165
156,Brøttum,10.5534589,61.0285229
157,Bru,5.649514367689962,59.042364199999994
158,Brumunddal,10.9418392,60.884916
159,Brusand,5.7448455,58.5405388
160,Bryggja,5.4320714,61.9387873
161,Bryne,5.6478183,58.735525
162,Bud,6.9143693,62.9072115
163,Burfjord,22.0518668,69.9378704
164,Buskerud,15.5490888,68.9721139
165,Buskogen,10.9349886,59.1789851
166,Buvika,10.1738766,63.3084804
167,Bybrua,5.747191,58.9748214
168,Bygdøy,10.679746050187354,59.9069949
169,Bygland,7.733850127918564,58.87201925
170,Byglandsfjord,7.8076569,58.6675708
171,Bykle,7.2310871186421295,59.42730565
172,Byrkjelo,6.5053208,61.7330135
173,Byrknes,4.8376925,60.8992161
174,City,121.0865776,14.6557595
175,County,-91.9215691,41.9027805
176,Dalane,9.3679241,58.872109
177,Dale,7.7889092,63.1219922
178,Dalemarka,5.1948589,60.5139833
179,Dalen,8.0037607,59.4448745
180,Darbu,9.7999147,59.7014181
181,Davanger,5.1137402,60.4711612
182,Deatnu Tana,27.891327153538903,70.28233420000001
183,Degernes,11.4223794,59.3533563
184,Dimmelsvik,5.9756773,59.9535532
185,Dimna,5.8018213,62.3256077
186,Disenå,11.6415878,60.2066794
187,Dokka,10.0739023,60.8347165
188,Dombås,9.1278983,62.0755539
189,Dovre,9.440367091535318,62.11462645
190,Drag,16.0800251,68.0447107
191,Dragsund,5.8197112,62.2802416
192,Drammen,10.175641950012762,59.6964936
193,Drangedal,8.9687835464674,59.09089375
194,Drøbak,10.6293392,59.6633005
195,Egersund,6.0007554,58.4515121
196,Eggkleiva,10.049459,63.2813836
197,Eid,7.6552528,58.0437972
198,Eidbukta,13.720628,66.842989
199,Eide,6.5460569,60.0567986
200,Eidfjord,7.0080879,60.4860338
201,Eidsberg,11.3037863,59.5135508
202,Eidsbotn,11.26239216514346,63.735174
203,Eidskog,12.080849068374137,59.991080749999995
204,Eidsvåg,5.302145369580179,60.44105345
205,Eidsvik,6.5782593,62.5431442
206,Eidsvoll,11.255544249678406,60.41629645
207,Eigersund,5.925820265812268,58.40343595
208,Eikefjord,5.4624139,61.5881405
209,Eikeland,8.2949006,58.2843673
210,Eikelandsosen,5.7450954,60.2407343
211,Eina,10.5974936,60.6303188
212,Eivindvik,5.0782594,60.9800683
213,Ekeberg,10.7738639,59.8960812
214,Ekne,11.042774,63.6962201
215,Elnesvågen,7.1550965,62.8533303
216,Eltonåsen,11.0214901,60.1359174
217,Elverum,11.734442073482581,60.97280245
218,Enebakk,11.104546563719158,59.769249200000004
219,Ersfjordbotn,18.6208344,69.6944118
220,Etne,6.294994955666921,59.7985899
221,Evenes,16.906967779768962,68.49686075
223,Evje,10.5138417,59.8997806
224,Evje og Hornnes,7.861506825099659,58.5860538
225,Fåberg,7.3269297,61.6716408
226,Fagerliåsen,10.262428,59.9041192
227,Fagernes,9.236413,60.9860981
228,Fagerstrand,10.5974391,59.7396833
229,Fana,5.3452894,60.2633267
230,Fanahammeren,5.3371856,60.2622428
231,Fannrem,9.8140413,63.2659291
232,Fardalen,7.7499831,61.3589241
233,Farsund,6.584827355243855,58.038737299999994
234,Fauske,15.784422075480048,67.23671525
235,Fåvang,10.1947546,61.4554298
236,Feda,6.8186187,58.2665247
237,Fedje,4.478821674495913,60.792886499999994
238,Ferkingstad,5.1968921,59.2241562
239,Fet,6.6160322,62.3087441
240,Fetsund,11.1623481,59.9270625
241,Figgjo,5.8129174,58.7866295
242,Fiksdal,6.8532833,62.6191612
243,Fillan,8.9758184,63.6024311
244,Finnbråtan,10.1490222,60.2626306
245,Finnestad,5.6554045,58.9961447
246,Finnmark,9.5833627,58.9435055
247,Finnøy,5.802329666221826,59.201204450000006
248,Finnsnes,17.9812966,69.2296016
249,Fiskåbygd,5.558251,62.1004924
250,Fitjar,5.298614699704089,59.90274745
251,Fjaler,5.479256476952042,61.28056825
252,Fjell,10.205564346515292,59.7228421
253,Fjellfoten,11.4738604,60.0905103
254,Fjellsrud,10.9784382,59.937481
255,Fjellstad,11.0963221,59.8577137
256,Fjellstrand,10.6153616,59.7979477
257,Fjordane,5.8885792,61.4587979
258,Flatanger,10.62267841041298,64.52909185
259,Flateby,11.153367,59.8292738
260,Flekke,5.36109,61.3187823
261,Flekkefjord,6.612962604643913,58.294935699999996
262,Flesberg,9.445058326507027,59.85726655
263,Flesland,5.2113211,60.2932079
264,Flisa,12.1078837,60.9644244
265,Flora,11.3655281,63.461019
266,Florø,5.0349596,61.6002583
267,Foldrøy,5.301998,59.7965517
268,Folkestad,6.0329471,62.1186316
269,Folketeaterpassasjen,10.7503062,59.914257
270,Follafoss,11.1104608,63.986506
271,Folldal,9.973714257718742,62.156249700000004
272,Follebu,10.2849401,61.2156378
273,Follo,9.8421035,63.2832075
274,Forbregd,11.5533845,63.8103842
275,Førde,5.8571725,61.4521759
276,Førdesfjorden,5.3787992,59.3554633
277,Føresvik,5.4395848,59.2310258
278,Forland,5.1015556,60.1898238
279,Forsand,6.0979566,58.9003299
280,Forset,10.1442065,61.2020862
281,Forsøl,23.8015445,70.7213628
283,Fosen,5.354555286718185,59.3007908
284,Fosnavåg,5.6342433,62.3421061
285,Fossbergom,8.5651797,61.8347557
286,Fossnes,10.2551491,59.2886158
287,Fotlandsvåg,5.5246297,60.5896967
288,Fræna,7.156407,62.854171
289,Fredrikstad,10.9361604,59.2133614
290,Frekhaug,5.2403768,60.5181905
291,Frogn,10.64598548235418,59.6957457
292,Frogner,10.7066491,59.9222241
293,Froland,8.600437985137697,58.587284600000004
294,Frommereid,5.0771111,60.5019222
295,Frøya,8.889507659687325,64.0705003
296,Fuglevik,10.7627472,59.3231583
297,Fusa,5.735771315835611,60.1935843
298,Fyllingsdalen,5.292641508213948,60.34700960000001
299,Fyresdal,8.037083372807686,59.144754
300,Gáivuotna Kåfjord,20.72717161808157,69.4973215
301,Gamlebyen,10.769846,59.9043544
302,Gamvik,28.163400299197704,70.87916405000001
303,Gangstadhaugen,11.3312366,63.9582939
304,Gata,11.3440268,60.6848944
305,Gaular,6.1186641,61.3491401
306,Gauldalen,10.826678,62.9607963
307,Gaupne,7.2945685,61.4046801
308,Gausdal,9.85321866311698,61.264068050000006
309,Geilo,8.2063719,60.5345261
310,Geithus,9.9679296,59.932029
311,Gibostad,18.0760924,69.3538045
312,Gildeskål,13.943733218191982,67.00603609999999
313,Gilja,6.2588494,58.8071375
314,Giske,5.721106460277015,62.640268500000005
315,Gjemnes,7.8692606369819575,62.918906449999994
316,Gjerde,9.318427,58.9283877
317,Gjerdrum,11.020612257865926,60.0787767
318,Gjermundshamn,5.9166868,60.0595092
319,Gjerstad,8.979742055383706,58.8782545
320,Gjesdal,6.277085087512646,58.831208849999996
321,Gjøvik,10.503886379493999,60.87216165
322,Gladstad,11.961864,65.6769293
323,Glærem,8.6361355,62.9900094
324,Glåmdalen,12.0224556,60.469913
325,Glesnes,5.0407711,60.2096051
326,Glomfjord,13.9493751,66.8122881
327,Glomstein,10.3670722,59.1981583
328,Gloppen,6.177924983732583,61.72965245
329,Glosli,11.0352227,59.1923437
330,Gol,9.012301772691686,60.7513391
331,Gomnes,10.1743623,60.0782966
332,Gran,10.429861689666648,60.438539399999996
333,Grane,13.408331792970014,65.4429994
334,Granrudmoen,10.4389639,61.2422669
335,Granvin,6.7194203,60.5240658
336,Gravdal,13.5532976,68.118191
337,Grenland,9.708254052474171,59.12362455
338,Grimstad,8.712829118742853,58.2839967
339,Grinde,5.4636068,59.4290657
340,Grøa,8.7199771,62.6363176
341,Grodås,6.5252984,61.9665802
342,Grong,12.637238268418749,64.53079715000001
343,Grønland,10.7601469,59.9127909
344,Grønlands Torg,10.761795236386355,59.91264445
345,Grønlund,10.841316227855438,59.702330450000005
346,Grorud,10.8805488,59.9614243
347,Grov,17.120942,68.6763882
348,Grua,10.6649485,60.2590571
349,Grue,12.221322506509111,60.41360525
350,Grünerløkka,10.777421166334747,59.92547125
351,Gryllefjord,17.0550418,69.3626961
352,Gudbrandsdalen,9.8344149,61.5829007
353,Gulen,5.155032196867182,60.961458699999994
354,Gullhaug,10.2563523,59.5002945
355,Guovdageaidnu Kautokeino,23.0413193,69.0124212
356,Gvarv,9.1747361,59.3877705
357,Hå,5.567436743998952,58.51840775
358,Hadeland,10.632602213515423,60.00317455
359,Hadsel,14.82780768487207,68.50329099999999
361,Hægeland,7.7413361,58.3834278
362,Hafslo,7.2024649,61.3157433
363,Haga,11.373128,60.0537415
364,Haganes,30.0493799,69.7290366
365,Håkvik,17.3082522,68.4048185
366,Hålandsmarka,5.5764862,58.8508809
367,Halden,11.537191002239753,59.0680555
368,Hallingby,10.184833,60.2713811
369,Hallingdal,10.7875265,60.6603622
370,Hålogaland,17.4820128,68.4648749
371,Hamar,11.16479641006573,61.0014937
372,Hamarøy,16.241584472892598,67.9218459
373,Hammarsland,5.069611,60.2571144
374,Hammarvika,8.8150752,63.7019843
375,Hammerfest,23.8360800591327,70.6413392
376,Hamna,18.9814097,69.703541
377,Hamnås,10.5922572,60.0352228
378,Hamre,5.3584469,60.5467805
379,Hanøy,5.0867954,60.4464464
380,Hansnes,19.6270874,69.9670442
381,Haram,6.1875532,62.6563869
382,Hardanger,10.6792306,59.9053968
383,Hardbakke,4.8406111,61.0739804
384,Hareid,6.03051058682474,62.3598311
385,Harestua,10.7124285,60.206619
386,Harpefoss,9.861588,61.5773469
387,Harstad,16.520913478350344,68.92973835000001
388,Hasle,10.794713,59.9243612
389,Hasvik,22.11576399254509,70.63289449999999
390,Hattfjelldal,14.170608243183656,65.49995580000001
391,Haugalandet,5.3097014,59.3831099
392,Hauge,10.9948047,59.2465303
393,Haugesund,5.082761213563481,59.46824785
394,Haugland,5.1604139,60.4500944
395,Haugo,5.4760456,60.5049419
396,Haugsbygda,5.5829377,62.235448
397,Hauknes,10.3649733,64.1978774
398,Hausvik,6.9912792,58.0440885
399,Havøysund,24.6609576,70.9963105
400,Hedmark,12.014743700990163,60.81343105
401,Hedmarken,11.2016988,60.8449524
402,Heggedal,10.4370443,59.7872163
403,Heggelia,18.5049561,69.0466724
404,Heggenes,9.0696678,61.143733
405,Hegra,11.1142474,63.4641248
406,Heiås,11.2957068,59.7028487
407,Helgeland,6.3071504,59.3786367
408,Helgelandsmoen,10.2332154,60.1154514
409,Helgeroa,9.8633258,58.9937289
410,Hell,10.9127178,63.4449171
411,Helle,14.667081592237484,68.24170235
412,Hellerud,10.8298389,59.9100673
413,Hellesylt,6.8696967,62.085337
414,Hellvik,10.6911815,59.8444877
415,Hem,10.1969715,59.0709883
416,Hemne,9.07932910526316,63.2872965
417,Hemnes,14.142850886712063,66.01135455
418,Hemnesberget,13.6066754,66.224837
419,Hemsedal,8.383486929952534,60.928243699999996
420,Henningsvær,14.2007245,68.152888
421,Hermansverk,6.8521849,61.1828937
422,Herøy,5.2930882011715825,62.4390366
423,Herøysund,5.798846,59.9234537
424,Herre,9.5625212,59.1033623
425,Hesseng,29.9973303,69.6868198
426,Hestvika,9.1956069,63.5667052
427,Hitra,8.693911425517566,63.56532465
428,Hjelmeland,6.406204196828469,59.203514
429,Hjelmelandsvågen,6.1796864,59.2367398
430,Hjelset,7.4974714,62.7814324
431,Hjørungavåg,6.0629447,62.3471684
432,Hjukse,9.3259,59.5038
433,Hobøl,11.1731714,59.7732322
434,Hoelsand,8.63085,62.66221
435,Hof,10.0883162,59.530321
436,Hoffland,6.1966553,62.4950058
437,Hognesaunet,10.9607027,63.4589056
438,Hogsetfeltet,11.3631432,59.97749
439,Hokksund,9.9107409,59.7672653
440,Hol,8.022360477715747,60.603684900000005
441,Hole,10.302044003584083,60.04163175
442,Høle,10.302044003584083,60.04163175
443,Hølen,10.7423942,59.5399008
444,Holevik,4.9941683,61.4206626
445,Høllen,7.8085966,58.0786117
446,Hollingen,6.9929698,62.7787276
447,Holme,5.156994,60.5300498
448,Holmestrand,10.153170199116143,59.5591252
449,Holmsbu,10.4276243,59.5601943
450,Holtålen,11.359567642911351,62.865391900000006
451,Hommelstø,12.5516302,65.4073265
452,Hommelvik,10.795811,63.4113975
453,Hommersåk,5.8488049,58.9297144
454,Hønefoss,10.255486,60.1662082
455,Honningsvåg,25.977841,70.9802638
456,Hordaland,6.5835956,59.9481063
457,Hordnes,5.3073909,60.262912
458,Hornindal,6.5250604,61.9743535
459,Hornnes,7.771412,58.5538998
460,Horten,10.443739186052063,59.4101728
461,Hov,6.069573615534042,62.17846935
462,Høvåg,8.2445469,58.1716336
463,Hovden,6.069573615534042,62.17846935
464,Hovdenakken,5.9447746,62.3399761
465,Hovin,10.2241132,63.1055604
466,Høyanger,5.814139388881717,61.1254821
467,Høyjord,10.1206389,59.555275
468,Høylandet,12.36145476467382,64.7562159
469,Høysand,11.1905161,59.1916329
470,Hundorp,9.9403522,61.5552602
471,Hunn,11.7628065,64.4636494
472,Hurdal,10.975961488579873,60.4270172
473,Hurum,10.4791527,63.4400166
474,Husnes,5.7563039,59.8609617
475,Husøy,10.4635867,59.2389718
476,Hvaler,10.782005384155639,58.947530799999996
477,Hvasser,10.4435673,59.0804612
478,Hvitsten,11.095578177429175,59.07803265
479,Hvittingfoss,10.0117366,59.4857217
480,Hyggen,10.3691838,59.7163677
481,Hylla,11.3876519,63.8414996
482,Ibestad,17.15228185134577,68.8483081
483,Ikornnes,6.5554555,62.3847263
484,Ilhaugen,10.1492428,63.3014405
485,Ilseng,11.2220867,60.7751068
486,Inderøy,11.09264475092375,63.84991645
487,Ingeberg,11.1340569,60.8277791
488,Innbygda,11.0863017,63.2423918
489,Inndyr,14.0265019,67.0352399
490,Innfjorden,7.5668545,62.4985434
492,Innvik,6.6151452,61.8521038
493,Ise,11.2203472,59.3004709
494,Isebakke,11.308589,59.1145948
495,Isfjorden,14.813061349032353,78.2750033
496,Jæren,11.2762235,60.1854688
497,Jansberg,11.3475527,59.5184668
498,Jaren,10.5557772,60.3929443
499,Jelsnes,11.7816547,60.2352174
500,Jessheim,11.1751516,60.1415121
501,Jevnaker,10.408457856495165,60.28255445
502,Jølster,6.094885170781011,61.473610699999995
503,Jondal,6.2522294,60.2756458
504,Jørpeland,6.0393553,59.0208917
505,Jørstadmoen,10.3848109,61.1455355
506,Jortveit,7.7504072,58.5753513
507,Judaberg,5.8763012,59.172017
508,Kabelvåg,14.4773789,68.2101202
509,Kåfjord,20.72717161808157,69.4973215
510,Kåfjordbotn,20.8083373,69.4977505
511,Kaland,5.4174139,60.275825
512,Kalvåg,4.8789988,61.7667615
513,Kampå,11.3916945,60.2172583
514,Kampen,10.7802475,59.9127314
515,Kapp,10.8578361,60.7143314
516,Karasjok,25.5111384,69.4718736
518,Karlestrand,9.776386,63.768755
519,Karlshus,10.8723765,59.3517216
520,Karlsøy,19.189778958544373,70.24516525
521,Karmøy,5.214685957796417,59.34339865
522,Kårvåg,7.4448732,63.0137169
523,Kaupanger,7.2449657,61.1841967
524,Kautokeino,23.57829982232755,69.1325609
525,Kil,9.3021987,58.8909462
526,Kilsund,8.9726468,58.5521972
527,Kinsarvik,6.7196524,60.3757875
528,Kirkebygda,10.3916872,59.1149169
529,Kirkebygden,10.8630454,59.4897509
530,Kirkegrenda,10.7270952,59.3766327
531,Kirkenær,12.058381,60.4563525
532,Kirkenes,30.0448971,69.7271478
533,Kirkevoll,8.2154,60.5236695
534,Kjellmyra,12.038723,60.6464832
535,Kjøllefjord,27.3510542,70.9456658
537,Kjøpstad,14.2578217,67.0675341
538,Kjøpsvik,16.3786373,68.0973005
539,Kjørnes,7.1275161,61.2110278
540,Kjosen,9.0162129,59.1520272
541,Klæbu,10.527307798942669,63.25052985
542,Kleive,7.6374506,62.7951367
543,Klepp,5.354318419705924,58.7326787
544,Kleppe,5.6293516,58.774243
545,Klevjer,10.2033889,59.6445444
546,Kløfta,11.1391499,60.0753432
547,Klokkarstua,10.4591059,59.613792
548,Klokkarvik,5.1553728,60.2226984
549,Knappskog,5.0559262,60.3791935
550,Knarrevik,8.0612304,58.1379347
551,Knarvik,5.285399,60.5461492
552,Kodal,10.1384331,59.2143828
553,Kolbu,10.7447564,60.6503319
554,Kolnes,5.3729766,59.3890919
555,Kolvereid,11.6027053,64.8647037
556,Konglungen,10.5097042,59.8393771
557,Kongsberg,9.670860075643745,59.594550049999995
558,Kongsvinger,12.216023065279844,60.1899109
559,Kopervik,5.3066975,59.2835845
560,Koppang,11.0499925,61.5710031
561,Korgen,13.8218815,66.0765918
562,Korsvegen,10.1004055,63.1600986
563,Korsvik,8.0802333,58.1418389
564,Kragerø,9.4142145,58.8696217
565,Kråkstad,10.8909032,59.6833949
566,Kristiania,10.7389701,59.9133301
567,Kristiansand,7.93185802875815,58.085627599999995
569,Kristiansund,7.545258996501891,63.216819400000006
570,Krøderen,9.639664973785095,60.25430635
571,Krødsherad,9.671514167017413,60.1924956
573,Kroksund,10.2969919,60.0663285
574,Krossberg,5.6486961,58.9661104
575,Krossen,6.1106578,59.0722836
576,Krossneset,7.8370306,58.0684333
577,Kvæfjord,16.092226315711375,68.6875552
578,Kvænangen,22.057103761329003,69.85949615000001
579,Kvål,10.2815184,63.2314354
580,Kvaløysletta,18.8619905,69.6901726
581,Kvalsund,5.6006175,62.3449173
582,Kvam,11.4824104,64.0337691
583,Kvelde,9.9688646,59.1922104
584,Kvernaland,5.721074,58.778965
585,Kvinesdal,6.9539610197038755,58.51813075
586,Kvinnherad,6.032514050433982,59.95317235
587,Kviteseid,8.482792379508197,59.409653950000006
588,Kvithammer,10.8736552,63.4900989
589,Kvitsøy,5.281312509491724,59.00841925
590,Kylstad,11.0425364,60.8734314
591,Kyrkjebø,5.9047815,61.1633035
592,Kyrksæterøra,9.0888635,63.2907955
594,Lærdal,7.8032867220845485,61.03861345
595,Lærdalsøyri,7.4825328,61.0987561
596,Lakselv,24.9606571,70.0524983
597,Laksevåg,5.2925722,60.3876083
598,Lalm,9.275133,61.8177312
599,Lampeland,9.5803482,59.8350302
600,Land,9.8743057,60.2340258
601,Landås,5.371952354440231,60.3615283
602,Langangen,9.8037016,59.0884715
603,Langesund,9.7484437,59.000697
604,Langevåg,6.1908603,62.4405047
605,Langhaugane,6.5913195,62.536075
606,Langørjan,10.1734715,63.6293819
607,Langset,11.2425854,60.4038691
608,Lardal,8.1839628,59.4246434
609,Larkollen,10.6702747,59.330383
610,Larsnes,5.5716078,62.2068371
611,Larvik,10.021929959972812,59.0967308
612,Lauve,10.049475,59.1323278
613,Lauvsnes,10.8949966,64.4997433
614,Lavangen,17.816274754930678,68.71698319999999
615,Lebesby,26.81282352172304,70.6657291
616,Leikanger,6.8067653,61.1856189
617,Leikong,5.7814561,62.2476391
618,Lein,11.6908534,64.0823375
619,Leinstrand,10.308343,63.3280212
620,Leira,11.0911548,59.9485444
621,Leirfjord,12.977239735776369,66.09627735000001
622,Leirsund,11.0870456,59.9999567
623,Leirvik,5.5005712,59.7809398
624,Leitebakk,6.0318698,62.4796278
625,Leknes,13.6115311,68.1474646
626,Leksvik,10.6232322,63.6727318
627,Leland,12.9433171,66.0639866
628,Lena,10.8134458,60.6739717
629,Lensbygda,10.8414668,60.6446251
630,Lenvik,18.1584412,69.4444763
631,Ler,10.302245,63.1976713
632,Lervik,10.7461669,59.2710902
633,Levanger,11.223880440465752,63.696451800000006
634,Li,28.2395272,-25.7589265
635,Lia,13.014658,66.6009233
636,Lier,10.211552530640098,59.84531345
637,Lierne,13.59973671660904,64.42101065
638,Liknes,6.9617919,58.3116822
639,Liland,16.8890999,68.4808958
640,Lillehammer,10.4670073,61.1145451
641,Lillesand,8.440325744249662,58.1161123
642,Lillestrøm,11.0491122,59.9559239
643,Lindås,5.1614412,60.7363494
644,Lindeberg,10.882706,59.9331552
645,Lindesnes,7.383195598569651,58.116131249999995
646,Linnestad,10.6947927,59.6397201
647,Lister,6.8046286,58.0945526
648,Lodalen,10.7788075,59.9041972
649,Loddefjord,5.2331114,60.361483
650,Løding,14.744898,67.2971009
651,Lødingen,15.609655745604854,68.3944357
652,Lofoten,13.680940656585705,68.20239194999999
653,Lofthus,6.6590809,60.3257558
654,Løiten Brænderi,11.3054114,60.8264314
655,Løken,11.4657623,59.7956824
656,Løkenfeltet,11.0416539,60.1379608
657,Løkken Verk,9.7053282,63.1257479
658,Lom,8.425897734173628,61.7142578
659,Lommedalen,10.4690248,59.9685301
660,Lonevåg,5.4956333,60.5255611
661,Longum,8.7776172,58.5089408
662,Loppa,21.43540533967742,70.3996274
663,Løpsmarka,14.45122508783496,67.31504275
664,Lørenfallet,11.2262164,60.0211283
665,Lørenskog,10.966914823844895,59.8970034
666,Løstad,9.6830216,63.6176186
667,Løten,11.372851280304207,60.865275350000005
668,Lovund,12.3643502,66.3689944
669,Lund,6.457286920803609,58.46402055
670,Lundamo,10.2852658,63.1520254
671,Lundermoen,11.1499456,60.0096095
672,Lunner,10.6664934222367,60.235060149999995
673,Lurøy,12.69973802349364,66.4378018
674,Luster,7.5692148601594855,61.518948449999996
675,Lyefjell,5.7357096,58.7327519
676,Lyngdal,7.0523045432054,58.1516995
677,Lyngen,20.081766136112186,69.72971205
678,Lyngseidet,20.2190704,69.5762575
679,Lysøysund,9.870303,63.884934
680,Lysthaugen,11.6219146,63.7614715
681,Mære,11.4273853,63.9379617
682,Magnor,12.2016746,59.9509602
683,Majorstuen,10.7155691,59.9292711
684,Majorstua,10.7155691,59.9292711
685,Malm,11.2173077,64.0702638
686,Malme,7.2328311,62.7996007
687,Måløy,5.1129133,61.9336888
688,Målselv,19.397072098575876,68.96919295000001
689,Malvik,10.737869534777623,63.39518835
690,Mandal,7.4534802,58.0268181
691,Manger,5.0414999,60.6412787
692,Marka,10.671005191490298,60.040261650000005
693,Marker,11.646738826092733,59.4877053
694,Marnardal,7.5135914,58.2132998
695,Måsøy,24.544236515832235,70.9767587
696,Maura,11.0319267,60.2583019
697,Mebonden,11.0313807,63.2247433
698,Mehamn,27.8517589,71.0389923
699,Meland,6.3711669,59.2465575
700,Melandsvågen,5.1816813,59.7673575
701,Melbu,14.8009385,68.5012616
702,Meldal,9.7120642,63.0461201
703,Melhus,10.30813448748398,63.18143325
704,Meløy,13.194805360603299,66.949069
705,Melsomvik,10.3362022,59.2246686
706,Meråker,11.812497651996985,63.396928349999996
707,Mesnali,10.697521,61.1027407
709,Midsund,6.6745516,62.67386
710,Midtbygda,5.3213278,60.4783528
711,Midtre Gauldal,10.523457216030936,62.89447575
712,Miland,8.7531331,59.925608
713,Minnesund,11.2133326,60.3915023
714,Misje,4.9648664,60.4519586
715,Missingmyr,10.9369866,59.3467209
716,Mo,14.1386991,66.3110969
717,Mo i Rana,14.1386991,66.3110969
718,Moane,6.2300923,62.1845613
719,Modum,10.019163234857526,60.01051165
720,Moelv,10.7000422,60.9297779
721,Moen,11.0113806,59.2114556
722,Mogrenda,6.0794698,61.918164
723,Moi,6.5518742,58.4570799
724,Molde,8.138620840166594,62.60162565
725,Moldekleiv,5.2150326,60.5469777
726,Moltustranda,5.6271799,62.2933568
727,Momoen,11.393677,59.8046086
728,Mønshaugen,10.5453747,62.1210803
729,Monssveen,10.6654174,60.8227612
730,Møre og Romsdal,7.518194072637362,62.8452777
731,Mork,6.0332236,62.1674455
732,Mosjøen,13.1892098,65.8375342
733,Moskenes,12.814153290875511,67.9027556
734,Moss,10.659657776223916,59.414667449999996
735,Mosterhamn,5.383042,59.7009239
736,Mosvik,11.0050557,63.8182824
737,Movatn,10.8130061,60.0378275
738,Movik,19.0929997,69.7127373
739,Møvik,5.0088882,60.3259995
740,Mule,11.3900327,63.7563435
741,Municipality,9.128192346649687,55.73569435
742,Muruvik,10.8401806,63.434375
743,Myklebost,7.3391555,62.331523
744,Myra,8.7326171,58.4849196
745,Myre,15.9630806,69.1059735
746,Mysen,11.3240316,59.5537833
747,Nærbø,5.639316,58.666471
748,Nærland,5.8472584,59.1546879
750,Nærøy,11.2589032,64.816285
751,Nakkerud,10.04889,60.0518487
752,Namdalen,29.9776676,69.5566921
753,Namdalseid,11.2224941,64.2216726
754,Namnå,12.0781383,60.4999626
755,Namsos,11.334504720494646,64.46663724999999
756,Namsskogan,12.881796714002014,64.812794
757,Nannestad,10.940940671045684,60.2267034
758,Narvik,17.086538711321808,68.28988385
759,Naustdal,5.716199,61.5095147
761,Nedre Eiker,9.784039,59.737731
762,Nedstrand,5.8590806,59.3459105
763,Nerland,7.9958127,62.6880049
764,Nes,11.455117948252838,60.1705037
765,Nesbyen,9.02834167962304,60.5468243
766,Nesbygda,10.3384781,59.690067
767,Nesgrenda,8.8572535,58.6272528
768,Nesjestranda,7.4314296,62.6970825
769,Neskollen,11.339928,60.1238005
770,Neslandsvatn,9.1561657,58.9715169
771,Nesna,12.9657859624104,66.22368035
772,Nesodden,10.637834488651412,59.808313
773,Nesoddtangen,10.6616211,59.8561452
774,Nesset,11.2453247,63.7479688
775,Nevlunghamn,9.8670325,58.9681885
776,Nidaros,10.3952118,63.4304475
777,Nissedal,8.528013540729887,59.04973655
778,Nittedal,10.856610881659574,60.08045425
779,Nodeland,7.8357952,58.1551373
780,Nome,9.18615845526622,59.26395855
781,Nord-Aurdal,9.265893447325993,61.004021949999995
782,Nord-Fron,9.589845193680503,61.6018868
783,Nord-Odal,11.584875777754126,60.4398571
784,Nord-sel,9.4211411,61.8489618
785,Nord-Trøndelag,10.431477772448751,64.35059855
786,Nordagutu,9.3226987,59.4180062
787,Norderhaug,10.9160788,59.1063703
788,Norderhov,10.2727222,60.1316865
789,Nordfjord,15.7217783,67.4364849
790,Nordfjordeid,5.9891381,61.907681
791,Nordhordland,5.2913126,60.5463992
792,Nordkapp,25.7858893,71.1699506
793,Nordkisa,11.26303,60.1856804
794,Nordkjosbotn,19.5583133,69.2173185
795,Nordland,13.862360639913621,67.27564050000001
796,Nordlia,10.6285072,61.0796577
797,Nordmarka,10.672670012452514,60.1219769
798,Nordmøre,10.4033158,63.433016
799,Nordre Aker,10.756405491505506,59.95363095
800,Nordre Land,9.981470685857955,60.9460173
801,Nordreisa,21.598863610673952,69.52745715
802,Nordstrand,10.7861425,59.8645605
803,Nordvågen,26.0304925,70.9846935
804,Nore og Uvdal,8.417263459847739,60.2920795
805,Noresund,9.6241232,60.1798561
806,Norheimsund,6.145961,60.3712494
807,Noruega,8.7876653,61.1529386
808,Notodden,9.150808170862877,59.6871024
809,Nøtterøy,10.414497626317415,59.2152536
810,Numedal,20.5911524,69.5691659
811,Nybergsund,12.322592,61.2610989
812,Nykirke,10.3835706,59.4244396
813,Nypan,10.3080815,63.3308805
814,Odda,6.5469316,60.0679248
815,Oddevall,10.2157617,59.8628273
816,Ofoten,16.9955252,68.5264757
817,Ogna,5.8050349,58.5194644
818,Øksfjord,22.3505275,70.2394948
819,Øksnes,14.816677145879822,69.0342557
820,Ola Narr,10.77817152660035,59.921992450000005
821,Olden,6.8072075,61.8351511
822,Olderdalen,20.537129,69.6030929
823,Ølen,5.8072592,59.6056388
824,Ølensvåg,5.7426673,59.5963577
825,Oltedal,6.0362828,58.8274088
826,Oma,5.6924916,58.7096129
827,Opakermoen,11.5159743,60.1794566
828,Oppdal,9.62330412000998,62.535178450000004
829,Oppegård,10.8113187,59.7670938
830,Oppeid,15.6130699,68.084992
831,Opphaug,9.6887972,63.7275544
832,Oppland,10.1585603,63.3865692
833,Ørje,11.6601637,59.480231
834,Orkanger,9.8496676,63.304819
835,Orkdal,9.814118350000005,63.2644545
836,Orkdalen,9.9663163,62.8327377
837,Ørland,9.70036523566815,63.841405300000005
838,Ormåsen,11.8825978,61.0294269
839,Ørnes,13.7060869,66.8730775
840,Ørskog,6.817356,62.478281
841,Ørsta,6.285936758760558,62.247053750000006
842,Os,5.448526647650309,60.21376995
843,Osøyro,5.4700485,60.1859484
844,Østensjø,10.83274792453087,59.8875633
845,Østenstad,10.4601764,59.8116114
846,Østerdalen,13.988183,66.825925
847,Osterøy,5.501497117890182,60.57087845
848,Østfold,10.771381546474355,59.919095999999996
849,Østhusvik,5.777547,59.0920062
850,Østre Toten,10.90941999338401,60.6228265
851,Otnes,11.1756382,61.7579535
852,Otta,9.5352541,61.7712448
853,Ottersbo,9.7738808,63.7074098
854,Ottersøy,11.287802,64.857615
855,Øverbø,8.67665,59.6107556
856,Overhalla,11.854014097305411,64.48059190000001
857,Øvre Årdal,7.8027747,61.3088198
858,Øvre Eiker,9.841214682827431,59.7441709
859,Øyenkilen,10.8506186,59.1716572
860,Øyer,10.504001742069814,61.3273517
861,Øygarden,7.8566389,58.0786444
862,Øyslebø,7.5521619,58.1673342
863,Øystese,6.2007983,60.3866989
864,Øystre Slidre,9.116496698942951,61.2510155
866,Ploganes,6.0127342,60.2624959
867,Pollestad,5.568592,58.7180166
868,Porsanger,25.1993945322406,70.23312680000001
869,Porsángu,25.1993945322406,70.23312680000001
870,Porsanki,25.1993945322406,70.23312680000001
871,Porsgrunn,9.736353765927529,59.103735
872,Poverudbyen,10.2669583,59.9054472
873,Prestegårdshagen,11.061156,60.4130291
874,Prestfoss,9.635342,60.0433903
875,Prestmoen,10.98274,63.4503067
877,Råde,10.842334261608071,59.33168605
878,Radøy,5.049131105484458,60.65541855
879,Rælingen,11.078987832315171,59.89101135
880,Rafsbotn,23.5327746,70.0195497
881,Råholt,11.1728733,60.2838578
882,Rakkestad,11.421125079931825,59.36031595
883,Råkvågen,10.072051176402995,63.764161900000005
884,Ramsøy,5.050406361343258,60.4376604
885,Ramsund,16.5182034,68.49194
886,Rana,14.394592297461763,66.43971315
887,Randaberg,5.564876566360093,59.021066649999995
888,Ranemsletta,11.9483593,64.4935932
889,Raudeberg,5.13778,61.9849433
890,Raufoss,10.6135011,60.7222414
891,Rauma,7.688358647597401,62.44547455
892,Rausand,15.3912433,67.0812399
893,Re,6.4095387,61.7378453
894,Reinsvoll,10.6164542,60.6789834
895,Reipå,13.6370703,66.9101106
896,Remøy,5.6489694,62.3627616
897,Rena,11.3721973,61.1327634
898,Renbygda,11.3207004,62.8435413
899,Rendalen,11.202159909721754,61.806568150000004
900,Rennebu,9.887330034184988,62.7662727
901,Rennesøy,5.649151657986611,59.11483665
902,Rensvik,7.816946,63.0960446
903,Revetal,10.2631011,59.3723954
904,Rindal,9.34277481539749,63.00287845
905,Ringebu,10.364927458738272,61.5572191
906,Ringerike,10.021763528256955,60.327406249999996
907,Ringsaker,10.84452823847775,60.9850657
908,Ringstad,14.6371688,68.6552194
909,Ringvål,10.2595005,63.3556236
910,Ringvoll,10.468725,59.9104111
911,Risør,9.310831267755196,58.67683125
912,Risøyhamn,15.6383507,68.9719105
913,Rissa,9.959178,63.5842624
914,Rjukan,8.5941579,59.8786976
915,Roa,10.6209335,60.2834922
916,Røa,10.6436313,59.947157
917,Roald,6.1241844,62.5838286
918,Rød,10.7736049,59.4606566
919,Rødberg,20.0342639,69.58165
920,Rogaland,5.805878643040238,58.93631375
921,Rognan,15.3935626,67.1014386
922,Røldal,6.8151977,59.8333844
923,Rollag,9.208074285034133,60.01567265
925,Romerike,11.4196195,59.6696833
926,Romsdal,23.4693247,69.9184528
927,Røn,9.0566533,61.0332412
928,Rophus,5.3003599,59.4908658
929,Røra Stasjon,11.4017544,63.856875
930,Røros,11.660436507014776,62.569515100000004
932,Rørvik,11.2379128,64.8615745
933,Rosendal,6.0067979,59.9869792
934,Rossnes,7.5363861,57.987925
935,Røst,12.032691133157426,67.39728615000001
936,Rostadneset,10.9963394,59.2932534
937,Røstlandet,12.107298285340827,67.5210597
938,Rotnes,10.8675593,60.0583199
939,Roverud,12.0520435,60.2534381
940,Røyken,15.9995456,69.2886047
941,Røyrvik,13.5420775666799,64.8152809
942,Rubbestadneset,5.2680891,59.8155882
943,Rukkedalen,9.0018505,60.5637422
944,Ryfylke,10.48116,59.39197
945,Rygge,10.7480223,59.3779677
946,Ryggebyen,10.7517622,59.3811022
947,Rykene,8.637409,58.4098638
948,Rypefjord,23.6718242,70.6412939
949,Sæbøvik,5.7095314,59.7941932
950,Sætre,10.5274488,59.6812809
951,Sagene,10.765848812662396,59.93827295
952,Saggrenda,11.8038561,61.296946
953,Sagvåg,5.3929786,59.77576
954,Salangen,17.83507327918832,68.87483805
955,Saltdal,15.492671203380478,66.88095415000001
956,Salten,14.3731855,67.2831972
957,Samnanger,5.782026383047787,60.40597285
958,Sand,6.2508666,59.4840165
959,Sandane,6.2156466,61.777068
960,Sandbumoen,9.544686,61.7257843
961,Sande,5.317861114564093,62.2939875
962,Sandefjord,10.28043216859497,59.07990035
963,Sandeid,5.8652667,59.5438719
964,Sander,11.809059,60.2275245
965,Sandnes,6.394641047340787,58.983132049999995
966,Sandnessjøen,12.6317232,66.0215451
967,Sandøy,4.764788636017299,61.55122875
968,Sandøya,12.159146714222892,66.52208494999999
969,Sandve,5.1932025,59.1755306
970,Sandvika,10.5249914,59.8921158
971,Sandvoll,5.815649,59.8070734
972,Sankt Hanshaugen,10.74415614247192,59.91842535
973,Sånum,7.4134319,58.0205812
974,Sarpsborg,11.229781140849298,59.254955
975,Såstadbråten,10.718519,59.4007988
976,Sauda,6.462093764721425,59.70456595
977,Sauherad,9.282524835273897,59.421287250000006
978,Schous plass,10.7611757,59.9209504
979,Segalstad Bru,10.2227236,61.2283267
980,Seim,5.2704727,60.6188478
981,Seimsdalen,7.6528297,61.2437833
982,Seimsfoss,5.9965384,59.9647318
983,Sekkingstad,4.9869282,60.3550149
984,Sel,9.40894857515197,61.760310000000004
985,Selbekken,9.8266121,63.5045213
986,Selbu,11.159626465065346,63.1754254
987,Selje,5.3474511,62.044272
988,Seljord,8.512253409438468,59.57344535
989,Selvik,10.2592788,59.5677362
990,Sem,10.3301166,59.2821273
991,Senjehopen,17.4859909,69.4958812
992,Sessvollmoen,11.1447978,60.233946
993,Setermoen,18.3482428,68.8609408
994,Setesdal,7.5743735,59.0738535
995,Sigdal,9.409776720569564,60.130182399999995
996,Sigerfjord,15.5054378,68.6469528
997,Siggerud,10.8818778,59.7909206
998,Siljan,9.68941570620385,59.30989905
999,Silsand,17.9497381,69.2448116
1000,Silvalen,12.2885049,65.983325
1001,Sira,6.7340724,58.706196
1002,Sirdal,6.822112934637613,58.8454
1003,Sirevåg,5.801803,58.5037462
1004,Sistranda,8.8297021,63.7301981
1005,Sjåstad,11.301205,63.6350077
1006,Sjøholt,6.8138552,62.4825497
1007,Sjøvegan,17.8521825,68.8726409
1008,Skålevik,5.225044,60.3891644
1010,Skånevik,5.9355815,59.7330482
1011,Skånland,16.5800068,68.5854548
1012,Skarde,5.936628,62.1607833
1013,Skarnes,11.6804033,60.2538602
1014,Skarpengland,7.8414979,58.2950865
1015,Skatval,10.8256915,63.5091494
1016,Skaun,10.052301924268896,63.2701426
1017,Skedsmo,11.4626292,59.7830858
1018,Skei,8.726186,62.9735828
1019,Ski,10.8382736,59.7199326
1020,Skibotn,20.2678449,69.3907984
1021,Skien,9.531135447537467,59.2662883
1022,Skiptvet,11.151797925103532,59.47112894999999
1023,Skivika,14.429319072481135,67.3070695
1024,Skjærhalden,11.0368478,59.0252713
1025,Skjåk,7.9151655775009715,61.9346175
1026,Skjeberg,11.1904753,59.2118594
1027,Skjervøy,20.69898970978413,70.17099735
1028,Skjold,5.5929688,59.5063696
1029,Skjønhaug,11.3156512,59.6409123
1030,Skodje,6.6962479,62.5037394
1031,Skoge,5.7099125,62.2220456
1032,Skogmo,12.0129658,64.5083215
1033,Skogn,11.1923998,63.7038577
1034,Skogrand,10.1507556,63.9709556
1035,Skogsvågen,5.1018647,60.2553005
1036,Skomrak,7.0615367,58.1149388
1037,Skoppum,10.4111458,59.3914629
1038,Skotbu,10.9477,59.6590342
1039,Skotselv,9.8841789,59.8452703
1040,Skotterud,12.1235101,59.9857808
1041,Skre,5.3644517,59.4055067
1042,Skreia,10.9356928,60.6526232
1043,Skudeneshamn,5.2581715,59.1497472
1044,Skudeneshavn,5.2581715,59.1497472
1045,Skulestadmoen,6.4365596,60.655922
1046,Slåttevik,5.4640731,59.3137918
1047,Slemsrud,11.2011339,60.8470637
1048,Sletta,11.103680173935825,59.07932135
1049,Slettebrotane,7.8299,58.2659417
1050,Slevik,10.8251224,59.1960668
1051,Slidre,8.9816042,61.0879457
1052,Slitu,11.2620807,59.5668864
1053,Småland,10.7061413,63.5976747
1054,Smestad,10.6841674,59.9372195
1055,Snåsa,12.6227838648384,64.18526075
1056,Sneltvedt,9.6383751,59.218758
1057,Snurråsen,9.7109862,59.291332
1058,Søfteland,5.4293504,60.2193639
1059,Sogn,10.4196359,60.3048274
1060,Sogn og Fjordane,6.5981695,61.2071553
1061,Sogndal,6.720364762111766,61.329791
1062,Sogndalsfjøra,7.1024605,61.2296114
1063,Sogndalstrand,6.284675826886293,58.32910715
1064,Søgne,7.7893494,58.0953248
1065,Sokna,10.518883,63.12191
1066,Sokndal,6.159565614935779,58.2461254
1067,Soknedal,10.1887319,62.9509733
1068,Sola,5.622712653837669,58.88099305
1069,Solerød,10.3657312,59.3724306
1070,Solsletta,7.8815768,63.0863858
1071,Solund,4.525360087989319,61.05075575
1072,Sommarøy,18.0053682,69.6337712
1073,Sømna,12.223679584060022,65.35970645
1074,Son,10.6879701,59.5242201
1075,Søndre Land,10.25187488759807,60.702737299999995
1076,Søndre Nordstrand,10.798495515727911,59.83594385
1077,Songdalen,7.830505591322901,58.155498
1078,Sønsterud,12.0695244,60.6615371
1079,Sør-Aurdal,9.688619422873067,60.66650705
1080,Sør-Fron,9.93577129954486,61.6029785
1081,Sør-Odal,11.748137958687995,60.212296949999995
1082,Sør-Varanger,29.726137111460147,69.53756605000001
1083,Sørbygdafeltet,11.2669427,60.7259824
1084,Søre øyane,5.3772848,60.1446729
1085,Sørengkaia,10.7555528,59.9028806
1086,Sørfold,15.663173264223696,67.51942165
1087,Sørkjosen,20.9502985,69.7860232
1088,Sørland,5.7912616,61.8986221
1089,Sørlandet,13.858892,66.870553
1090,Sørreisa,18.1529623,69.1454396
1091,Sortland,15.367917868560635,68.76729605
1092,Sørum,10.2106625,60.1636629
1093,Sørumsand,11.2437611,59.9865836
1094,Sørvågen,13.0163707,67.8896342
1095,Søvik,6.2791752,62.5474498
1096,Sparbu,11.4332149,63.9190789
1097,Spetalen,11.8993508,60.1926471
1098,Spillum,11.5213039,64.4454111
1100,Spongdal,10.1659461,63.3557322
1101,Sponvika,11.2300504,59.0925855
1102,Spydeberg,11.0793391,59.6207942
1103,St. Hanshaugen,10.7400423,59.9261982
1104,Stamsund,13.8492285,68.1300745
1105,Stange,11.383120762784838,60.6244351
1106,Stanghelle,5.7372424,60.550956
1107,Stathelle,9.6952755,59.043879
1108,Stavanger,5.7318101,58.9699675
1109,Stavern,10.0360061,58.9983397
1110,Stavsjø,10.8391555,60.8055968
1111,Steinkjer,11.481908998592733,64.050737
1112,Steinsåsen,10.2881619,60.0888795
1113,Steinshamn,6.4695798,62.7811683
1114,Steinvåg,28.1533446,71.0855557
1116,Stetteremma,6.622353,62.5223777
1117,Stikkaåsen,11.0092763,59.3301645
1118,Stjørdal,11.134472299094192,63.4627028
1119,Stjørdalen,11.3493284,63.4606152
1120,Stjørdalshalsen,10.9188917,63.4712416
1121,Stokke,10.30039258333334,59.221354500000004
1122,Stokmarknes,14.9133484,68.5670003
1123,Stor-Elvdal,10.902510758323453,61.581569349999995
1124,Storås,10.3205732,59.6402753
1125,Storbakken,7.7828616,63.0371849
1126,Stord,5.488370639966453,59.82502055
1127,Stordal,6.9859189,62.3822326
1128,Storebø,5.2247435,60.0961406
1129,Støren,10.2903958,63.0353514
1130,Storfjord,20.308515121848917,69.2517494
1131,Storforshei,14.5277523,66.4044787
1132,Storsand,10.2935327,63.2677252
1133,Storslett,21.0244567,69.7678521
1134,Storsteinnes,18.8908814,69.3322907
1135,Stovner,10.9228232,59.9621403
1136,Strand,6.015425784935906,59.02031475
1137,Stranda,6.930213683468532,62.1678462
1138,Straume,5.1235129,60.3583797
1139,Straumen,5.4401225,60.2598498
1140,Straumgjerde,6.5936306,62.3332047
1141,Strømsnes,13.1686412,68.0446727
1142,Stryn,6.802968514467588,61.8218058
1143,Sula,6.203593760870791,62.40986815
1144,Suldal,6.556934350135077,59.54327535
1145,Sulitjelma,16.0773781,67.1329051
1146,Sund,13.2078944,68.0051834
1147,Sundbyfoss,10.1258689,59.5129519
1148,Sunde,5.7114821,59.8359038
1149,Sundgot,5.840256,62.3159544
1150,Sundvollen,10.3071438,60.062583
1151,Sunndal,8.652670274162393,62.64702885
1152,Sunndalsøra,8.5632934,62.6751972
1153,Sunnfjord,6.049171849524982,61.46858235
1154,Sunnhordland,5.7114821,59.8359038
1155,Sunnmøre,5.8902869293577975,62.341521
1156,Surnadal,8.787930646988247,62.9228432
1157,Surnadalsøra,8.6601507,62.9701424
1158,Svalia,11.9443459,64.503751
1159,Svarstad,6.638175,61.8905704
1160,Sveggen,7.5998602,63.1059245
1161,Sveio,5.4117567089092296,59.61370615
1162,Svelgen,5.2906103,61.7683359
1163,Svelvik,10.375691563665043,59.59000155
1164,Svene,9.5804802,59.7932628
1165,Svenevik,7.0229239,58.1121967
1166,Svennevik,7.2010062,58.0485061
1167,Sviland,5.8223986,58.8249911
1168,Svinndal,11.0165754,59.423722
1169,Svolvær,14.5646019,68.2321709
1170,Svøo,8.6248547,60.8383879
1171,Svorkmo,9.73923,63.1700875
1172,Svortland,5.1723045,59.7928363
1173,Sykkylven,6.609036694668587,62.3430581
1174,Sylling,10.2841004,59.8944404
1175,Sylte,5.6204737,62.0514713
1176,Sysle,9.9184528,59.9899334
1177,Tælavåg,4.9811796,60.2598702
1178,Talvik,22.950196,70.0424667
1179,Tana,27.891327153538903,70.28233420000001
1180,Tana Bru,28.1881116,70.1986333
1181,Tananger,5.5864225,58.9359135
1182,Tanem,10.4321199,63.3077004
1183,Tangen,5.2266276,60.3280631
1184,Tau,5.9225031,59.0647739
1185,Teigebyen,11.017635,60.2206671
1186,Telemark,10.6848421,59.9063655
1187,Tennevoll,17.8062907,68.7470256
1188,Terråk,12.3737769,65.0886481
1189,Time,5.751222183410932,58.70742255
1190,Tingnes,10.9416396,60.762299
1191,Tingvoll,8.220096007931156,62.9538733
1192,Tingvollvågen,8.2082888,62.9113805
1193,Tinn,8.586019273065524,59.9752133
1194,Tinn Austbygd,8.8269009,59.9955631
1195,Tjeldsund,16.226651272944107,68.55469895
1196,Tjøme,10.39958349463733,59.11097325
1197,Tjørvåg,5.7336191,62.2886673
1198,Tjøtta,12.4261163,65.823064
1199,Tjuvholmen,8.741284124352477,58.39841765
1200,Toft,12.1347968,65.4690099
1201,Tofte,10.5569937,59.5415387
1202,Tokke,7.94613396967045,59.4634656
1203,Tolga,11.070463712524084,62.3718777
1204,Tomb,10.8051479,59.319384
1205,Tomra,6.9208723,62.5749746
1206,Tomter,11.0026279,59.6598277
1207,Tomteråsen,11.3691494,60.10871
1208,Tønsberg,10.282049110877239,59.3549795
1209,Tonsenhagen,10.8270777,59.9476956
1210,Tonstad,6.7160736,58.6645543
1211,Torget,10.7943429,60.0223134
1212,Torhaug,7.3217433,62.729979
1213,Tornes,7.0333716,62.8416098
1214,Torpo,8.7194022,60.6645187
1215,Torsken,17.0463892,69.3524392
1216,Torsteinsvik,4.9379024,60.4916171
1217,Torvik,10.6893814,59.8079708
1218,Torvika,5.7879703,61.9207631
1219,Torvikbukt,7.8575288,62.9438495
1220,Toten,9.393344,59.907728
1221,Træna,11.919308401524713,66.5571596
1222,Tranby,10.2610586,59.810446
1223,Tresfjord,7.1295147,62.5223664
1224,Tretten,10.300658,61.3145095
1225,Trøa,9.9615148,64.057637
1226,Trofors,13.3864306,65.5387083
1227,Trøgstad,11.3062298,59.6353728
1228,Trolla,10.304226,63.4510762
1229,Trolldalen,10.9395639,59.1463806
1230,Trømborg,11.3614351,59.5058815
1231,Troms,18.972490634079904,69.6819069
1232,Tromsdalen,18.9940426,69.6453264
1233,Tromso,18.9558585,69.6516345
1234,Tromsø,18.9558585,69.6516345
1235,Trøndelag,10.195050547141093,63.87759235
1236,Trondheim,10.3952118,63.4304475
1237,Trones,14.7685075,66.9203377
1238,Trysil,12.36702596037586,61.3561472
1239,Tuv,8.4852637,60.8792476
1240,Tvedestrand,8.9312364,58.6226384
1241,Tveit,8.1179375,58.2298065
1242,Tveitsund,8.5251188,59.0165355
1243,Tverrelvdalen,23.4969797,69.9226841
1244,Tveteneåsen,9.9938008,59.0351055
1245,Tynset,10.532249364357114,62.360107049999996
1246,Tyristrand,10.0971643,60.0854616
1247,Tysfjord,16.073588,68.2029416
1248,Tysnes,5.533466657570517,59.9867036
1249,Tyssedal,6.5590922,60.1163142
1250,Tysvær,5.648517980730407,59.3579105
1251,Uggdalseidet,5.4944109,59.9974011
1252,Ulefoss,9.264519,59.2839949
1253,Ullensaker,11.198429641490772,60.15410715
1254,Ullensvang,6.934982291448958,60.0757598
1255,Ullern,10.665131833047553,59.9258182
1256,Ulstein,5.82863603435073,62.363780750000004
1257,Ulsteinvik,5.84686,62.3426629
1258,Ulvik,7.225060762462181,60.6049906
1259,Undheim,5.7744627,58.6821048
1261,Uskedal,5.8662188,59.9344607
1262,Utgård,10.87475,59.0798889
1263,Uthaug,9.5993996,63.7257243
1264,Uvdal,8.7509752,60.2698519
1265,Vadfoss,9.3449639,58.8918694
1266,Vadsø,29.78277929931153,70.22671985
1267,Værøy,12.871463987533996,67.58533835
1268,Vågå,8.994550726167361,61.7019796
1269,Vågåmo,9.0962243,61.875734
1270,Vågan,14.66305729578616,68.27768710000001
1271,Våge,5.2753883,59.3422679
1272,Vågsøy,18.626782359443467,69.83313745000001
1273,Våk,10.803798,59.4609532
1274,Vaksdal,5.767017366031196,60.6734959
1275,Valdres,11.1744511,60.5147476
1276,Valen,13.072844,65.876711
1277,Våler,12.014743700990163,60.81343105
1278,Valestrandfossen,5.4327556,60.5057028
1279,Valle,7.424769369708003,59.16907165
1280,Vang,8.469518925838273,61.192208550000004
1281,Vangsåsen,11.6627339,64.9313423
1282,Vanse,6.6912726,58.0981546
1283,Vanvikan,10.2211768,63.5535227
1284,Vanylven,5.656602412605702,62.08748575
1285,Vardø,30.961751972265887,70.3308174
1286,Våre,7.19636070378089,58.00782705
1287,Varhaug,5.6453333,58.6163359
1288,Vassenden,6.1128289,61.4928845
1289,Vassøy,5.7850495,58.9977642
1290,Vatne,6.6171047,62.5583261
1291,Vear,10.3627871,59.2627986
1292,Vefsn,13.178635557364167,65.82074705
1293,Vega,11.498954289671698,65.73773485
1294,Vegårshei,8.823429976441632,58.755369
1295,Veggli,9.1546845,60.0422735
1296,Velde,10.1608417,63.9533639
1297,Vendla,10.5345118,59.866656
1298,Vennesla,7.770790282061096,58.33986185
1299,Verdal,11.920335002020447,63.78622565
1300,Verdalen,5.6099337,58.7849583
1301,Verdalsøra,11.4820286,63.7927932
1302,Verningen,10.1020806,59.0921222
1303,Verran,11.2179645,64.0709552
1304,Vest-Agder,7.3157833,58.0401306
1305,Vestby,10.711865345334502,59.559856249999996
1306,Vestbygda,15.5100452,68.3474231
1307,Vesterålen,14.6785866,68.7531551
1308,Vestfold,10.771326841127568,59.91917735
1309,Vestfossen,9.8673454,59.7343521
1310,Vestlandet,5.351111541486731,60.36887575
1311,Vestnes,7.11060774159323,62.56819005
1312,Vestre Aker,10.6703187408315,59.95830005
1313,Vestre Jakobselv,29.3330186,70.1116132
1314,Vestre Slidre,8.925665401761112,61.05335255
1315,Vestre Toten,10.613069181752156,60.6276003
1316,Vestvågøy,13.78410701345473,68.16072175
1317,Vettakollen,10.6955077,59.9601463
1318,Vigeland,7.9643139,58.2522444
1319,Viggja,9.9905946,63.3449274
1320,Vigrestad,5.6897326,58.5712263
1321,Vik,6.594105058640873,61.034966350000005
1322,Vikavågen,4.9586761,60.4693608
1323,Vikebø,5.0508917,60.5623119
1324,Vikedal,5.9025945,59.4981186
1325,Vikersund,9.9982696,59.969149
1326,Vikeså,6.0799839,58.63132
1327,Vikevåg,5.6980426,59.0974803
1328,Vikna,10.898063579539919,64.91561834999999
1329,Vikøy,6.1778472,60.3487757
1333,Vindafjord,5.758198502573389,59.581121550000006
1334,Vingnes,10.4444687,61.1053344
1335,Vingrom,10.4296109,61.0461223
1336,Vinje,7.713770319631215,59.80713825
1337,Vinstra,9.74729347341867,61.5953506
1338,Visnes,5.2382304,59.3565286
1339,Volda,6.274410767523168,62.08037975
1340,Voll,10.6185,59.930775
1341,Volleberg,7.849046,58.1214134
1342,Vollen,10.4860999,59.8069604
1343,Vormsund,11.41601,60.1534246
1344,Voss,6.4079048072958305,60.6837065
1345,Vossevangen,6.4147445,60.6286944
1346,Vuku,11.7372527,63.7756873
1347,Ydstebøhamn,5.402493,59.062217
1348,Yli,9.1936321,59.5613086
1349,Ytre Enebakk,11.0329758,59.7305182
1350,Ytrebygda,5.247822312590616,60.277648
1351,Oslo,10.7389701,59.9133301
